     3.04           OBSERVATION DATA    M: Mixed            RINEX VERSION / TYPE
RTKCONV demo5 b34k                      20250328 031432 UTC PGM / RUN BY / DATE         
                                                            MARKER NAME         
                                                            MARKER NUMBER       
                                                            MARKER TYPE         
                                                            OBSERVER / AGENCY   
BFN17053330         NOV CDSR0G55N       OEM060710RN0000     REC # / TYPE / VERS 
                                                            ANT # / TYPE        
 -2418096.8303  5386067.2666  2405154.1270                  APPROX POSITION XYZ 
        0.0000        0.0000        0.0000                  ANTENNA: DELTA H/E/N
G   12 C1C L1C D1C S1C C2W L2W D2W S2W C2S L2S D2S S2S      SYS / # / OBS TYPES 
R    8 C1C L1C D1C S1C C2P L2P D2P S2P                      SYS / # / OBS TYPES 
C    8 C2I L2I D2I S2I C7I L7I D7I S7I                      SYS / # / OBS TYPES 
  2020    11    19    06    00   00.0000000     GPS         TIME OF FIRST OBS   
  2020    11    19    06    04   59.0000000     GPS         TIME OF LAST OBS    
G L1C                                                       SYS / PHASE SHIFT   
G L2W  0.00000                                              SYS / PHASE SHIFT   
G L2S -0.25000                                              SYS / PHASE SHIFT   
R L1C                                                       SYS / PHASE SHIFT   
R L2P  0.25000                                              SYS / PHASE SHIFT   
C L2I                                                       SYS / PHASE SHIFT   
C L7I                                                       SYS / PHASE SHIFT   
  7 R07  5 R08  6 R09 -2 R10 -7 R12 -1 R16 -1 R22 -3        GLONASS SLOT / FRQ #
 C1C    0.000 C1P    0.000 C2C    0.000 C2P    0.000        GLONASS COD/PHS/BIS 
                                                            END OF HEADER       
> 2020 11 19 06 00 00.0000000  0 17                     
G23  20279011.109 8 106566905.09418      -373.481          48.881                                                                    20279010.911 7  83039138.62017      -291.030          47.725  
G18  23032935.942 5 121038877.17615     -3153.927          34.915                                                                                                                                  
G20  20033559.373 7 105277045.50117      -813.937          46.936    20033557.875 7  82034045.53517      -634.242          44.159                                                                  
G25  21641911.794 7 113729025.05017      2281.663          46.854                                                                    21641917.878 7  88620019.73617      1777.920          46.948  
G12  22114138.665 6 116210570.22416       310.555          38.742                                                                    22114138.558 5  90553685.82715       241.992          31.265  
G10  20826060.280 8 109441681.36018      1774.474          49.329                                                                    20826060.525 7  85279235.34717      1382.706          44.866  
R10  19423437.546 7 103537490.57017      1676.871          45.932                                                                  
R09  20315337.926 8 108482384.49718     -2282.590          48.319    20315338.181 7  84375189.53017     -1775.348          45.042  
R07  20536213.498 8 109931529.27218       998.318          48.113    20536212.970 7  85502319.37117       776.470          44.720  
C01  37496778.362 7 195255543.74017         0.458          44.095    37496782.877 7 150983976.51717         0.151          44.429  
C08  37965029.324 6 197693832.27016     -1731.402          38.496    37965030.828 6 152869402.38316     -1339.036          37.934  
C03  36338343.312 7 189223270.66517       -29.508          46.230    36338342.337 7 146319424.41217       -22.799          45.377  
C04  38408292.292 7 200002047.39617       -11.486          42.549    38408294.254 6 154654275.76016        -9.036          39.272  
C22  22593393.935 6 117649743.66016      1378.764          41.338                                                                  
C07  38196481.925 6 198899120.80116      1394.519          40.793    38196484.666 7 153801417.45317      1078.364          45.560  
C13  36623415.546 7 190707700.52917     -1416.172          45.434    36623423.361 7 147467307.65417     -1095.165          44.342  
C19  22790483.116 7 118675979.97117      -897.793          46.201                                                                  
> 2020 11 19 06 00 01.0000000  0 17                     
G23  20279082.394 8 106567279.635 8      -375.182          48.974                                                                    20279082.186 7  83039430.464 7      -292.356          47.917  
G18  23033536.895 6 121042031.497 6     -3154.278          36.594                                                                                                                                  
G20  20033714.467 7 105277860.609 7      -815.644          46.788    20033713.007 7  82034680.678 7      -635.573          43.898                                                                  
G25  21641477.800 7 113726744.308 7      2280.339          46.829                                                                    21641483.849 7  88618242.536 7      1776.888          46.797  
G12  22114079.770 6 116210260.768 6       309.275          38.693                                                                    22114079.716 5  90553444.692 5       240.992          31.729  
G10  20825722.773 8 109439907.788 8      1773.057          49.229                                                                    20825723.011 7  85277853.341 7      1381.602          45.043  
R10  19423123.204 7 103535814.907 7      1674.801          46.065                                                                  
R09  20315765.602 8 108484668.225 8     -2284.448          48.393    20315765.827 7  84376965.764 7     -1776.793          45.039  
R07  20536027.166 8 109930531.847 8       997.105          48.290    20536026.675 7  85501543.596 7       775.526          44.688  
C01  37496778.472 7 195255544.318 7        -0.923          44.094    37496782.988 7 150983976.936 7        -0.699          44.551  
C08  37965361.979 6 197695564.427 6     -1732.352          38.084    37965363.454 6 152870741.775 6     -1339.829          38.337  
C03  36338349.105 7 189223300.811 7       -30.354          46.521    36338348.130 7 146319447.705 7       -23.474          45.288  
C04  38408294.621 7 200002059.573 7       -12.352          42.648    38408296.600 6 154654285.181 6        -9.399          39.215  
C22  22593129.305 6 117648365.615 6      1377.750          41.552                                                                  
C07  38196214.261 6 198897726.980 6      1393.350          40.679    38196216.987 7 153800339.649 7      1077.573          45.403  
C13  36623687.658 7 190709117.506 7     -1417.477          45.473    36623695.489 7 147468403.337 7     -1096.004          44.681  
C19  22790655.705 7 118676878.803 7      -899.105          46.126                                                                  
> 2020 11 19 06 00 02.0000000  0 17                     
G23  20279153.915 8 106567655.419 8      -376.285          49.030                                                                    20279153.688 7  83039723.273 7      -293.216          47.797  
G18  23034138.322 6 121045186.591 6     -3155.396          36.959                                                                                                                                  
G20  20033869.801 7 105278677.024 7      -816.956          46.860    20033868.390 7  82035316.841 7      -636.594          43.742                                                                  
G25  21641044.016 7 113724464.684 7      2279.284          47.057                                                                    21641050.045 7  88616466.206 7      1776.066          46.767  
G12  22114021.059 6 116209952.656 6       307.426          38.887                                                                    22114021.102 5  90553204.590 5       239.549          32.521  
G10  20825385.486 8 109438135.356 8      1772.016          49.371                                                                    20825385.729 7  85276472.224 7      1380.790          44.959  
R10  19422809.134 7 103534140.794 7      1673.485          46.097                                                                  
R09  20316193.522 8 108486953.354 8     -2285.654          48.384    20316193.747 7  84378743.085 7     -1777.731          45.068  
R07  20535841.015 8 109929535.334 8       996.154          48.128    20535840.556 7  85500768.526 7       774.786          44.593  
C01  37496778.714 7 195255545.542 7        -1.274          43.942    37496783.236 7 150983977.904 7        -1.112          44.332  
C08  37965694.781 6 197697297.425 6     -1733.032          38.168    37965696.263 6 152872081.832 6     -1340.553          38.078  
C03  36338355.028 7 189223331.642 7       -30.987          46.135    36338354.061 7 146319471.547 7       -23.929          45.462  
C04  38408297.107 7 200002072.452 7       -13.106          42.658    38408299.072 6 154654295.147 6       -10.096          39.535  
C22  22592864.868 6 117646988.493 6      1376.634          41.412                                                                  
C07  38195946.734 6 198896333.864 6      1392.980          40.884    38195949.466 7 153799262.420 7      1077.131          45.488  
C13  36623959.943 7 190710535.305 7     -1418.083          45.327    36623967.779 7 147469499.675 7     -1096.601          44.529  
C19  22790828.480 7 118677778.639 7      -900.216          45.565                                                                  
> 2020 11 19 06 00 03.0000000  0 17                     
G23  20279225.534 8 106568031.741 8      -376.464          49.091                                                                    20279225.293 7  83040016.505 7      -293.356          47.946  
G18  23034739.540 6 121048341.791 6     -3154.909          37.148                                                                                                                                  
G20  20034025.238 7 105279494.006 7      -817.204          46.772    20034023.879 7  82035953.449 7      -636.786          43.411                                                                  
G25  21640610.301 7 113722185.444 7      2279.034          47.107                                                                    21640616.310 7  88614690.173 7      1775.871          46.674  
G12  22113962.505 6 116209645.098 6       307.629          38.928                                                                    22113962.361 5  90552964.921 5       239.705          33.092  
G10  20825048.271 8 109436363.320 8      1771.895          49.430                                                                    20825048.531 7  85275091.417 7      1380.696          44.927  
R10  19422495.239 7 103532467.496 7      1672.948          45.928                                                                  
R09  20316621.575 8 108489239.143 8     -2285.963          48.400    20316621.785 7  84380520.921 7     -1777.972          45.247  
R07  20535654.886 8 109928539.029 8       996.295          48.061    20535654.472 7  85499993.625 7       774.896          44.646  
C01  37496778.951 7 195255546.776 7        -1.127          43.981    37496783.476 7 150983978.851 7        -0.884          44.426  
C08  37966027.620 6 197699030.423 6     -1732.807          37.953    37966029.064 6 152873421.908 6     -1339.930          38.142  
C03  36338360.952 7 189223362.456 7       -30.744          46.170    36338359.976 7 146319495.378 7       -23.777          45.382  
C04  38408299.580 7 200002085.311 7       -12.667          42.384    38408301.543 6 154654305.100 6        -9.908          39.033  
C22  22592600.454 6 117645611.505 6      1377.023          41.063                                                                  
C07  38195679.204 6 198894940.781 6      1392.967          40.545    38195681.931 7 153798185.174 7      1077.259          45.275  
C13  36624232.248 7 190711953.233 7     -1417.969          45.447    36624240.085 7 147470596.107 7     -1096.420          44.590  
C19  22791001.305 7 118678678.760 7      -900.422          45.327                                                                  
> 2020 11 19 06 00 04.0000000  0 17                     
G23  20279297.288 8 106568408.795 8      -377.499          49.021                                                                    20279297.042 7  83040310.307 7      -294.162          47.832  
G18  23035339.931 6 121051497.224 6     -3155.604          38.357                                                                                                                                  
G20  20034180.824 7 105280311.754 7      -818.181          46.703    20034179.504 7  82036590.652 7      -637.548          44.059                                                                  
G25  21640176.694 7 113719906.796 7      2278.236          47.557                                                                    21640182.673 7  88612914.602 7      1775.249          46.567  
G12  22113904.096 6 116209338.334 6       306.252          38.966                                                                    22113903.903 5  90552725.870 5       238.630          32.094  
G10  20824711.177 8 109434591.872 8      1770.986          49.623                                                                    20824711.427 7  85273711.067 7      1379.989          44.666  
R10  19422181.529 7 103530795.194 7      1671.748          45.967                                                                  
R09  20317049.797 8 108491525.816 8     -2287.265          48.436    20317049.995 7  84382299.442 7     -1778.985          45.234  
R07  20535468.838 8 109927543.106 8       995.719          48.129    20535468.462 7  85499219.019 7       774.448          44.546  
C01  37496779.219 7 195255548.175 7        -1.439          43.881    37496783.754 7 150983979.943 7        -1.292          44.390  
C08  37966360.494 6 197700763.691 6     -1733.478          38.047    37966361.929 6 152874762.170 6     -1340.466          38.266  
C03  36338366.897 7 189223393.436 7       -31.020          46.213    36338365.934 7 146319519.338 7       -24.157          45.472  
C04  38408302.103 7 200002098.370 7       -13.326          42.457    38408304.061 6 154654315.176 6       -10.111          39.541  
C22  22592336.103 6 117644234.861 6      1376.142          41.280                                                                  
C07  38195411.723 6 198893547.885 6      1392.349          40.894    38195414.429 7 153797108.093 7      1076.976          45.592  
C13  36624504.611 7 190713371.454 7     -1418.446          45.585    36624512.447 7 147471692.762 7     -1096.808          44.631  
C19  22791174.206 7 118679579.323 7      -900.912          45.077                                                                  
> 2020 11 19 06 00 05.0000000  0 17                     
G23  20279369.190 8 106568786.585 8      -377.907          49.032                                                                    20279368.923 7  83040604.681 7      -294.480          47.693  
G18  23035941.938 6 121054652.876 6     -3155.885          38.108                                                                                                                                  
G20  20034336.558 7 105281130.309 7      -818.681          46.381    20034335.288 7  82037228.485 7      -637.937          44.197                                                                  
G25  21639743.208 7 113717628.741 7      2278.027          47.647                                                                    21639749.175 7  88611139.493 7      1775.085          46.602  
G12  22113845.860 6 116209032.384 6       305.807          39.303                                                                    22113845.697 5  90552487.448 5       238.280          32.554  
G10  20824374.196 8 109432821.033 8      1770.820          49.589                                                                    20824374.456 7  85272331.191 7      1379.858          44.415  
R10  19421868.011 7 103529123.952 7      1670.922          45.881                                                                  
R09  20317478.174 8 108493813.371 8     -2287.789          48.569    20317478.377 7  84384078.649 7     -1779.392          45.432  
R07  20535282.886 8 109926547.621 8       995.463          48.260    20535282.533 7  85498444.753 7       774.249          44.439  
C01  37496779.522 7 195255549.744 7        -1.106          43.872    37496784.054 7 150983981.165 7        -1.098          44.425  
C08  37966693.401 6 197702497.231 6     -1733.346          37.904    37966694.841 6 152876102.670 6     -1340.477          38.322  
C03  36338372.887 7 189223424.609 7       -30.983          46.222    36338371.919 7 146319543.434 7       -23.925          45.207  
C04  38408304.644 7 200002111.562 7       -13.064          42.536    38408306.602 6 154654325.403 6        -9.945          39.099  
C22  22592071.811 6 117642858.572 6      1376.186          40.954                                                                  
C07  38195144.280 6 198892155.221 6      1392.595          40.960    38195146.981 7 153796031.186 7      1077.092          45.490  
C13  36624777.030 7 190714789.999 7     -1418.420          45.668    36624784.872 7 147472789.671 7     -1096.749          44.327  
C19  22791347.195 7 118680480.375 7      -900.880          44.959                                                                  
> 2020 11 19 06 00 06.0000000  0 17                     
G23  20279441.136 8 106569164.608 8      -378.430          48.924                                                                    20279440.857 7  83040899.237 7      -294.887          47.944  
G18  23036542.671 6 121057808.267 6     -3155.657          39.075                                                                                                                                  
G20  20034492.350 7 105281949.130 7      -819.338          46.546    20034491.118 7  82037866.526 7      -638.448          43.859                                                                  
G25  21639309.733 7 113715350.779 7      2277.641          47.400                                                                    21639315.689 7  88609364.456 7      1774.784          46.601  
G12  22113787.612 6 116208726.713 6       305.430          39.280                                                                    22113787.476 5  90552249.243 5       237.985          32.752  
G10  20824037.224 8 109431050.282 8      1770.368          49.670                                                                    20824037.485 7  85270951.381 7      1379.506          43.914  
R10  19421554.587 7 103527453.196 7      1670.244          45.942                                                                  
R09  20317906.640 8 108496101.304 8     -2288.438          48.387    20317906.836 7  84385858.149 7     -1779.898          45.399  
R07  20535096.879 7 109925552.020 7       995.266          47.921    20535096.577 7  85497670.395 7       774.096          43.906  
C01  37496779.783 7 195255551.040 7        -1.337          43.875    37496784.292 7 150983982.151 7        -1.173          44.349  
C08  37967026.270 6 197704230.532 6     -1733.050          37.613    37967027.684 6 152877442.966 6     -1340.696          38.324  
C03  36338378.814 7 189223455.474 7       -31.200          46.291    36338377.845 7 146319567.293 7       -23.890          45.342  
C04  38408307.122 7 200002124.476 7       -13.241          42.554    38408309.072 6 154654335.362 6       -10.066          39.708  
C22  22591807.501 6 117641482.114 6      1376.191          41.520                                                                  
C07  38194876.757 6 198890762.210 6      1392.789          41.263    38194879.478 7 153794954.043 7      1077.065          45.652  
C13  36625049.419 7 190716208.354 7     -1418.508          45.659    36625057.274 7 147473886.447 7     -1096.992          44.662  
C19  22791520.184 7 118681381.415 7      -901.296          44.520                                                                  
> 2020 11 19 06 00 07.0000000  0 17                     
G23  20279513.246 8 106569543.526 8      -379.292          48.883                                                                    20279512.962 8  83041194.493 8      -295.559          48.094  
G18  23037143.423 6 121060964.086 6     -3156.065          39.091                                                                                                                                  
G20  20034648.313 7 105282768.870 7      -820.080          46.636    20034647.129 7  82038505.281 7      -639.026          44.066                                                                  
G25  21638876.408 7 113713073.554 7      2277.037          47.572                                                                    21638882.337 7  88607589.992 7      1774.313          46.526  
G12  22113729.583 6 116208421.967 6       304.600          39.205                                                                    22113729.697 5  90552011.767 5       237.339          32.149  
G10  20823700.405 8 109429280.306 8      1769.759          49.644                                                                    20823700.668 7  85269572.184 7      1379.033          44.261  
R10  19421241.380 7 103525783.604 7      1669.223          46.045                                                                  
R09  20318335.285 8 108498390.250 8     -2289.380          48.362    20318335.481 7  84387638.436 7     -1780.631          45.666  
R07  20534910.988 7 109924556.941 7       994.941          47.967    20534910.731 7  85496896.446 7       773.844          43.815  
C01  37496780.090 7 195255552.616 7        -1.553          44.100    37496784.589 7 150983983.377 7        -1.281          44.228  
C08  37967359.225 6 197705964.236 6     -1733.977          37.910    37967360.611 6 152878783.570 6     -1340.512          37.721  
C03  36338384.799 7 189223486.637 7       -31.214          46.383    36338383.842 7 146319591.399 7       -24.065          45.354  
C04  38408309.670 7 200002137.692 7       -13.203          42.315    38408311.618 6 154654345.579 6       -10.128          39.650  
C22  22591543.285 6 117640106.180 6      1375.686          41.531                                                                  
C07  38194609.309 6 198889369.578 6      1392.605          40.763    38194612.030 7 153793877.166 7      1076.894          45.734  
C13  36625321.898 7 190717627.187 7     -1418.835          45.551    36625329.767 7 147474983.573 7     -1097.185          44.409  
C19  22791693.287 7 118682283.094 7      -901.925          44.691                                                                  
> 2020 11 19 06 00 08.0000000  0 17                     
G23  20279585.387 8 106569922.581 8      -379.145          48.850                                                                    20279585.087 8  83041489.855 8      -295.443          48.085  
G18  23037744.324 6 121064119.579 6     -3155.625          39.735                                                                                                                                  
G20  20034804.322 7 105283588.825 7      -820.251          46.470    20034803.180 7  82039144.204 7      -639.159          44.540                                                                  
G25  21638443.092 7 113710796.349 7      2277.224          47.321                                                                    21638448.999 7  88605815.544 7      1774.459          46.362  
G12  22113671.623 6 116208117.449 6       304.454          39.549                                                                    22113671.499 5  90551774.464 5       237.223          32.721  
G10  20823363.590 8 109427510.343 8      1769.888          49.646                                                                    20823363.859 7  85268192.995 7      1379.135          44.087  
R10  19420928.269 7 103524114.446 7      1668.829          46.012                                                                  
R09  20318763.994 8 108500679.521 8     -2289.564          48.308    20318764.199 7  84389418.977 7     -1780.774          45.710  
R07  20534725.058 7 109923561.649 7       995.432          47.904    20534724.836 7  85496122.331 7       774.225          43.903  
C01  37496780.318 7 195255553.824 7        -1.144          43.916    37496784.812 7 150983984.298 7        -0.796          44.157  
C08  37967692.094 6 197707697.610 6     -1733.214          37.576    37967693.480 6 152880123.933 6     -1340.210          37.872  
C03  36338390.717 7 189223517.420 7       -30.614          46.533    36338389.756 7 146319615.205 7       -23.719          45.440  
C04  38408312.130 7 200002150.531 7       -12.657          42.396    38408314.082 6 154654355.521 6       -10.057          39.442  
C22  22591279.010 6 117638729.988 6      1376.149          41.571                                                                  
C07  38194341.793 6 198887976.563 6      1393.359          40.981    38194344.517 7 153792800.004 7      1077.130          45.676  
C13  36625594.320 7 190719045.781 7     -1418.635          45.598    36625602.201 7 147476080.511 7     -1096.954          44.547  
C19  22791866.386 7 118683184.674 7      -901.539          44.677                                                                  
> 2020 11 19 06 00 09.0000000  0 17                     
G23  20279657.611 8 106570302.119 8      -379.866          48.824                                                                    20279657.303 8  83041785.594 8      -296.005          48.152  
G18  23038344.800 6 121067275.024 6     -3155.595          38.917                                                                                                                                  
G20  20034960.427 7 105284409.274 7      -820.623          46.417    20034959.344 7  82039783.511 7      -639.450          44.148                                                                  
G25  21638009.841 7 113708519.470 7      2276.717          47.102                                                                    21638015.731 7  88604041.352 7      1774.064          46.346  
G12  22113613.762 6 116207813.429 6       303.836          39.445                                                                    22113613.755 5  90551537.546 5       236.741          32.567  
G10  20823026.833 8 109425740.709 8      1769.496          49.654                                                                    20823027.115 7  85266814.062 7      1378.829          44.498  
R10  19420615.285 7 103522446.018 7      1667.929          45.861                                                                  
R09  20319192.797 8 108502969.360 8     -2290.128          48.270    20319193.019 7  84391199.958 7     -1781.214          45.759  
R07  20534539.157 7 109922566.492 7       995.009          47.829    20534538.970 7  85495348.321 7       773.897          43.652  
C01  37496780.530 7 195255554.945 7        -1.210          44.216    37496785.023 7 150983985.159 7        -0.945          44.353  
C08  37968024.964 6 197709430.984 6     -1733.210          37.839    37968026.370 6 152881464.259 6     -1340.119          37.606  
C03  36338396.613 7 189223548.113 7       -30.736          46.529    36338395.656 7 146319638.928 7       -23.667          45.382  
C04  38408314.568 7 200002163.264 7       -12.819          42.785    38408316.512 6 154654365.335 6        -9.768          39.287  
C22  22591014.747 6 117637353.877 6      1376.019          41.374                                                                  
C07  38194074.271 6 198886583.495 6      1393.179          40.908    38194076.985 7 153791722.781 7      1077.361          45.704  
C13  36625866.755 7 190720464.408 7     -1418.693          45.831    36625874.632 7 147477177.478 7     -1096.917          44.636  
C19  22792039.521 7 118684086.460 7      -901.904          44.718                                                                  
> 2020 11 19 06 00 10.0000000  0 18                     
G23  20279729.938 8 106570682.135 8      -380.217          48.877                                                                    20279729.618 8  83042081.707 8      -296.278          48.244  
G18  23038945.636 6 121070430.489 6     -3155.536          39.388                                                                                                                                  
G20  20035116.631 7 105285230.274 7      -821.168          46.576    20035115.601 7  82040423.250 7      -639.874          44.610                                                                  
G25  21637576.648 7 113706242.926 7      2276.442          47.222                                                                    21637582.524 7  88602267.421 7      1773.850          46.212  
G12  22113556.021 6 116207509.940 6       303.532          39.336                                                                    22113556.036 5  90551301.049 5       236.506          32.546  
G10  20822690.145 8 109423971.439 8      1769.133          49.584                                                                    20822690.446 7  85265435.413 7      1378.547          44.312  
G24  23300351.621 5 122444173.41115     -3262.710          32.736                                                                                                                                  
R10  19420302.453 7 103520778.355 7      1667.235          45.799                                                                  
R09  20319621.718 8 108505259.838 8     -2290.848          48.299    20319621.970 7  84392981.437 7     -1781.774          45.752  
R07  20534353.285 7 109921571.492 7       994.912          47.696    20534353.134 7  85494574.434 7       773.821          43.654  
C01  37496780.728 7 195255555.972 7        -0.845          44.107    37496785.225 7 150983985.962 7        -0.734          44.294  
C08  37968357.860 6 197711164.398 6     -1733.595          37.739    37968359.243 6 152882804.651 6     -1340.326          37.760  
C03  36338402.495 7 189223578.731 7       -30.536          46.595    36338401.532 7 146319662.618 7       -23.686          45.284  
C04  38408317.000 7 200002175.955 7       -12.501          42.808    38408318.947 6 154654375.169 6        -9.787          39.649  
C22  22590750.508 6 117635977.895 6      1375.776          41.098                                                                  
C07  38193806.751 6 198885190.403 6      1393.190          41.309    38193809.460 7 153790645.553 7      1077.244          45.549  
C13  36626139.215 7 190721883.122 7     -1418.717          45.908    36626147.096 7 147478274.527 7     -1097.034          44.418  
C19  22792212.728 7 118684988.490 7      -902.024          45.236                                                                  
> 2020 11 19 06 00 11.0000000  0 18                     
G23  20279801.938 8 106571060.473 8      -376.178          48.787                                                                    20279801.614 8  83042376.512 8      -293.130          48.317  
G18  23039546.229 6 121073583.784 6     -3150.976          39.394                                                                                                                                  
G20  20035272.524 7 105286049.648 7      -817.233          46.605    20035271.556 7  82041061.721 7      -636.808          44.076                                                                  
G25  21637143.107 7 113703964.562 7      2280.574          47.237                                                                    21637148.961 7  88600492.075 7      1777.070          45.975  
G12  22113498.002 6 116207204.867 6       307.288          38.784                                                                    22113497.972 5  90551063.325 5       239.435          32.603  
G10  20822353.117 8 109422200.363 8      1773.137          49.715                                                                    20822353.406 7  85264055.350 7      1381.665          44.275  
G24  23300968.906 5 122447433.764 5     -3258.363          33.840                                                                                                                                  
R10  19419989.343 7 103519109.257 7      1671.165          45.839                                                                  
R09  20320050.359 8 108507548.735 8     -2286.828          48.113    20320050.623 7  84394761.689 7     -1778.646          45.741  
R07  20534167.026 7 109920574.464 7       999.388          47.670    20534166.919 7  85493798.966 7       777.302          43.669  
C01  37496780.502 7 195255554.819 7         3.540          44.031    37496785.004 7 150983985.065 7         2.731          44.220  
C08  37968690.347 6 197712895.679 6     -1729.088          38.083    37968691.714 6 152884143.402 6     -1336.985          37.268  
C03  36338407.961 7 189223607.156 7       -25.976          46.618    36338406.990 7 146319684.591 7       -20.151          45.314  
C04  38408319.013 7 200002186.422 7        -8.046          42.673    38408320.966 6 154654383.254 6        -6.076          39.768  
C22  22590485.889 6 117634599.882 6      1380.213          41.147                                                                  
C07  38193538.789 6 198883795.102 6      1397.687          41.146    38193541.508 7 153789566.614 7      1080.788          45.631  
C13  36626411.276 7 190723299.770 7     -1414.268          45.851    36626419.161 7 147479369.962 7     -1093.528          44.278  
C19  22792385.573 7 118685888.628 7      -897.999          45.853                                                                  
> 2020 11 19 06 00 12.0000000  0 18                     
G23  20279873.688 8 106571437.527 8      -378.788          48.706                                                                    20279873.375 8  83042670.320 8      -295.164          48.315  
G18  23040145.842 6 121076735.262 6     -3152.714          38.924                                                                                                                                  
G20  20035428.190 7 105286867.759 7      -819.786          46.619    20035427.269 7  82041699.207 7      -638.797          44.107                                                                  
G25  21636709.295 7 113701684.768 7      2278.348          47.225                                                                    21636715.120 7  88598715.614 7      1775.337          45.962  
G12  22113439.763 6 116206898.521 6       304.846          39.048                                                                    22113439.631 5  90550824.616 5       237.535          32.202  
G10  20822015.811 8 109420427.846 8      1770.963          49.737                                                                    20822016.112 7  85262674.165 7      1379.971          44.582  
G24  23301585.291 5 122450692.225 5     -3259.770          34.266                                                                                                                                  
R10  19419676.032 7 103517439.116 7      1668.332          45.845                                                                  
R09  20320478.758 7 108509836.450 7     -2289.473          47.982    20320479.065 7  84396541.025 7     -1780.703          45.902  
R07  20533980.456 7 109919575.760 7       997.277          47.634    20533980.388 7  85493022.196 7       775.659          43.602  
C01  37496779.927 7 195255551.824 7         1.665          43.984    37496784.419 7 150983982.747 7         1.380          44.252  
C08  37969022.498 6 197714625.185 6     -1730.991          37.856    37969023.819 6 152885480.758 6     -1338.299          37.594  
C03  36338413.068 7 189223633.730 7       -27.750          46.569    36338412.102 7 146319705.142 7       -21.499          45.233  
C04  38408320.668 7 200002195.035 7        -9.818          42.989    38408322.633 6 154654389.924 6        -7.618          39.527  
C22  22590220.936 6 117633220.179 6      1378.016          41.013                                                                  
C07  38193270.489 6 198882397.981 6      1395.680          41.008    38193273.202 7 153788486.272 7      1079.300          45.468  
C13  36626682.998 7 190724714.717 7     -1416.322          46.071    36626690.900 7 147480464.081 7     -1095.102          44.194  
C19  22792558.144 7 118686787.221 7      -900.204          46.009                                                                  
> 2020 11 19 06 00 13.0000000  0 18                     
G23  20279946.091 8 106571818.010 8      -382.023          48.629                                                                    20279945.788 8  83042966.799 8      -297.683          48.359  
G18  23040746.410 6 121079889.729 6     -3155.791          37.896                                                                                                                                  
G20  20035584.526 7 105287689.346 7      -822.951          46.798    20035583.639 7  82042339.407 7      -641.262          44.212                                                                  
G25  21636276.108 7 113699408.262 7      2275.040          47.199                                                                    21636281.904 7  88596941.718 7      1772.759          45.769  
G12  22113382.175 6 116206595.646 6       301.753          39.619                                                                    22113382.035 5  90550588.625 5       235.130          32.471  
G10  20821679.139 8 109418658.630 8      1767.787          49.711                                                                    20821679.441 7  85261295.559 7      1377.497          44.696  
G24  23302203.615 5 122453953.698 5     -3262.600          34.610                                                                                                                                  
R10  19419363.420 7 103515772.716 7      1664.724          45.889                                                                  
R09  20320907.851 7 108512127.806 7     -2292.918          47.862    20320908.187 7  84398323.191 7     -1783.382          45.868  
R07  20533794.471 7 109918580.201 7       994.196          47.724    20533794.436 7  85492247.871 7       773.263          43.435  
C01  37496779.895 7 195255551.682 7        -0.966          44.030    37496784.386 7 150983982.636 7        -0.855          44.382  
C08  37969355.209 6 197716357.647 6     -1733.432          37.178    37969356.539 6 152886820.396 6     -1340.580          37.596  
C03  36338418.720 7 189223663.171 7       -30.686          46.628    36338417.759 7 146319727.909 7       -23.755          45.303  
C04  38408322.866 7 200002206.525 7       -12.893          42.764    38408324.849 6 154654398.806 6        -9.897          39.696  
C22  22589956.568 6 117631843.492 6      1375.354          41.009                                                                  
C07  38193002.744 6 198881003.747 6      1393.013          41.374    38193005.457 7 153787408.163 7      1077.048          45.745  
C13  36626955.302 7 190726132.664 7     -1419.287          46.165    36626963.218 7 147481560.535 7     -1097.402          44.353  
C19  22792731.332 7 118687688.965 7      -902.992          46.216                                                                  
> 2020 11 19 06 00 14.0000000  0 18                     
G23  20280019.095 8 106572201.638 8      -385.575          48.467                                                                    20280018.799 8  83043265.726 8      -300.451          48.564  
G18  23041347.165 6 121083046.828 6     -3158.713          37.248                                                                                                                                  
G20  20035741.457 7 105288514.115 7      -826.625          46.827    20035740.602 7  82042982.084 7      -644.124          44.664                                                                  
G25  21635843.487 7 113697134.769 7      2271.574          46.905                                                                    21635849.265 7  88595170.169 7      1770.060          45.662  
G12  22113325.249 6 116206296.016 6       297.809          40.035                                                                    22113324.971 5  90550355.152 5       232.058          31.681  
G10  20821343.039 8 109416892.436 8      1764.403          49.685                                                                    20821343.362 7  85259919.310 7      1374.861          44.728  
G24  23302823.451 5 122457217.801 5     -3266.098          35.029                                                                                                                                  
R10  19419051.460 7 103514109.777 7      1660.986          45.788                                                                  
R09  20321337.562 7 108514422.448 7     -2296.642          47.729    20321337.922 7  84400107.911 7     -1786.278          45.835  
R07  20533609.020 7 109917587.499 7       990.999          47.717    20533609.021 7  85491475.769 7       770.777          43.387  
C01  37496780.365 7 195255554.128 7        -4.176          44.051    37496784.854 7 150983984.512 7        -3.140          44.252  
C08  37969688.402 6 197718092.712 6     -1736.540          37.410    37969689.738 6 152888162.082 6     -1342.765          37.395  
C03  36338424.875 7 189223695.184 7       -33.629          46.576    36338423.910 7 146319752.655 7       -25.979          45.232  
C04  38408325.562 7 200002220.553 7       -15.569          42.930    38408327.539 6 154654409.649 6       -12.093          39.774  
C22  22589692.720 6 117630469.552 6      1372.355          40.645                                                                  
C07  38192735.498 6 198879612.110 6      1390.198          41.228    38192738.219 7 153786332.069 7      1074.901          45.557  
C13  36627228.128 7 190727553.325 7     -1422.509          46.255    36627236.053 7 147482659.071 7     -1099.778          44.179  
C19  22792905.081 7 118688593.602 7      -906.429          46.400                                                                  
> 2020 11 19 06 00 15.0000000  0 18                     
G23  20280092.589 8 106572587.837 8      -386.379          48.574                                                                    20280092.291 8  83043566.655 8      -301.078          48.619  
G18  23041948.431 6 121086205.999 6     -3159.133          36.659                                                                                                                                  
G20  20035898.903 7 105289341.519 7      -827.490          46.983    20035898.073 7  82043626.812 7      -644.800          43.816                                                                  
G25  21635411.329 7 113694863.703 7      2270.872          46.795                                                                    21635417.090 7  88593400.508 7      1769.512          45.565  
G12  22113268.785 6 116205998.979 6       296.868          40.200                                                                    22113268.435 5  90550123.693 5       231.326          30.971  
G10  20821007.406 8 109415128.680 8      1763.643          49.780                                                                    20821007.729 7  85258544.956 7      1374.269          44.851  
G24  23303445.442 5 122460483.921 5     -3266.234          34.585                                                                                                                                  
R10  19418740.056 7 103512449.725 7      1659.794          45.675                                                                  
R09  20321767.788 7 108516719.830 7     -2297.410          47.421    20321768.173 7  84401894.762 7     -1786.876          45.953  
R07  20533424.002 7 109916597.074 7       990.440          47.678    20533424.033 7  85490705.437 7       770.341          43.395  
C01  37496781.215 7 195255558.541 7        -4.403          44.156    37496785.706 7 150983987.923 7        -3.182          44.334  
C08  37970022.039 6 197719829.926 6     -1737.060          37.127    37970023.325 6 152889505.370 6     -1343.081          36.886  
C03  36338431.403 7 189223729.179 7       -33.859          46.534    36338430.436 7 146319778.929 7       -26.069          45.154  
C04  38408328.642 7 200002236.591 7       -15.708          42.534    38408330.639 6 154654422.052 6       -12.230          39.630  
C22  22589429.277 6 117629097.785 6      1371.740          40.803                                                                  
C07  38192468.649 6 198878222.502 6      1389.916          40.917    38192471.352 7 153785257.529 7      1074.701          45.613  
C13  36627501.362 7 190728976.104 7     -1422.702          46.265    36627509.303 7 147483759.258 7     -1100.069          44.437  
C19  22793079.279 7 118689500.524 7      -906.960          46.565                                                                  
> 2020 11 19 06 00 16.0000000  0 18                     
G23  20280166.194 8 106572974.654 8      -387.308          48.575                                                                    20280165.903 8  83043868.064 8      -301.803          48.563  
G18  23042549.558 5 121089365.337 5     -3160.111          35.731                                                                                                                                  
G20  20036056.470 7 105290169.577 7      -828.637          47.136    20036055.666 7  82044272.048 7      -645.693          43.986                                                                  
G25  21634979.269 7 113692593.119 7      2270.109          46.800                                                                    21634985.014 7  88591631.219 7      1768.917          45.236  
G12  22113212.462 6 116205702.614 6       295.785          40.712                                                                    22113212.121 5  90549892.769 5       230.484          31.592  
G10  20820671.867 8 109413365.400 8      1762.979          49.703                                                                    20820672.186 7  85257170.973 7      1373.751          44.981  
G24  23304065.522 5 122463750.247 5     -3267.570          34.791                                                                                                                                  
R10  19418428.810 7 103510790.571 7      1658.500          45.412                                                                  
R09  20322198.153 7 108519017.987 7     -2298.749          47.093    20322198.567 7  84403682.217 7     -1787.917          45.927  
R07  20533239.027 7 109915606.899 7       989.853          47.580    20533239.096 7  85489935.300 7       769.885          43.711  
C01  37496782.078 7 195255563.010 7        -4.712          44.053    37496786.572 7 150983991.396 7        -3.744          44.336  
C08  37970355.663 6 197721567.235 6     -1737.549          37.652    37970356.951 6 152890848.779 6     -1343.616          36.392  
C03  36338437.946 7 189223763.229 7       -34.308          46.344    36338436.986 7 146319805.274 7       -26.558          45.269  
C04  38408331.723 7 200002252.708 7       -16.469          42.755    38408333.729 6 154654434.509 6       -12.468          39.635  
C22  22589165.898 6 117627726.238 6      1371.110          40.612                                                                  
C07  38192201.814 6 198876832.984 6      1389.106          40.951    38192204.505 7 153784183.051 7      1074.283          45.481  
C13  36627774.641 7 190730399.098 7     -1423.312          46.267    36627782.578 7 147484859.596 7     -1100.458          44.438  
C19  22793253.543 7 118690407.815 7      -907.552          46.793                                                                  
> 2020 11 19 06 00 17.0000000  0 18                     
G23  20280239.969 8 106573362.354 8      -388.029          48.579                                                                    20280239.679 8  83044170.164 8      -302.365          48.575  
G18  23043150.318 5 121092524.936 5     -3159.028          33.926                                                                                                                                  
G20  20036214.223 7 105290998.562 7      -829.514          47.197    20036213.434 7  82044918.010 7      -646.376          43.699                                                                  
G25  21634547.335 7 113690323.250 7      2269.571          47.057                                                                    21634553.072 7  88589862.486 7      1768.496          45.344  
G12  22113156.314 6 116205407.191 6       295.225          40.978                                                                    22113155.984 5  90549662.581 5       230.050          30.508  
G10  20820336.468 8 109411602.900 8      1762.250          49.614                                                                    20820336.812 7  85255797.599 7      1373.184          44.843  
G24  23304685.952 5 122467016.775 5     -3266.552          35.322                                                                                                                                  
R10  19418117.782 7 103509132.580 7      1657.420          45.398                                                                  
R09  20322628.717 7 108521317.188 7     -2299.691          47.323    20322629.162 7  84405470.483 7     -1788.650          45.877  
R07  20533054.162 7 109914617.301 7       989.289          47.897    20533054.263 7  85489165.615 7       769.447          43.926  
C01  37496782.991 7 195255567.838 7        -5.088          44.128    37496787.497 7 150983995.126 7        -3.894          44.702  
C08  37970689.392 6 197723304.952 6     -1737.963          36.974    37970690.672 6 152892192.521 6     -1343.615          36.101  
C03  36338444.559 7 189223797.622 7       -34.550          46.099    36338443.591 7 146319831.856 7       -26.547          45.297  
C04  38408334.878 7 200002269.132 7       -16.569          42.081    38408336.885 6 154654447.236 6       -12.754          39.848  
C22  22588902.624 6 117626355.229 6      1370.779          39.694                                                                  
C07  38191935.022 6 198875443.787 6      1389.095          41.260    38191937.717 7 153783108.821 7      1074.132          45.842  
C13  36628048.000 7 190731822.546 7     -1423.634          46.210    36628055.949 7 147485960.295 7     -1100.733          44.053  
C19  22793427.941 7 118691315.738 7      -908.234          47.159                                                                  
> 2020 11 19 06 00 18.0000000  0 18                     
G23  20280313.979 8 106573751.309 8      -389.551          48.487                                                                    20280313.694 8  83044473.242 8      -303.550          48.450  
G18  23043751.209 5 121095685.390 5     -3160.621          32.949                                                                                                                                  
G20  20036372.235 7 105291828.843 7      -830.895          47.431    20036371.455 7  82045564.983 7      -647.451          43.443                                                                  
G25  21634115.618 7 113688054.503 7      2268.282          46.907                                                                    21634121.338 7  88588094.631 7      1767.493          44.629  
G12  22113100.403 6 116205113.060 6       293.619          41.400                                                                    22113099.929 4  90549433.394 4       228.800          29.880  
G10  20820001.277 8 109409841.497 8      1760.826          49.551                                                                    20820001.618 7  85254425.071 7      1372.072          45.007  
G24  23305308.025 6 122470284.099 6     -3267.733          36.080                                                                                                                                  
R10  19417807.032 7 103507476.124 7      1655.798          45.207                                                                  
R09  20323059.537 7 108523617.778 7     -2301.283          46.937    20323060.019 7  84407259.832 7     -1789.887          45.611  
R07  20532869.475 7 109913628.631 7       988.192          47.701    20532869.613 7  85488396.651 7       768.595          43.995  
C01  37496784.051 7 195255573.337 7        -5.804          44.663    37496788.556 7 150983999.366 7        -4.453          44.517  
C08  37971023.270 6 197725043.432 6     -1739.028          37.418    37971024.543 6 152893536.820 6     -1344.525          36.773  
C03  36338451.294 7 189223832.697 7       -35.444          46.264    36338450.332 7 146319858.984 7       -27.397          45.223  
C04  38408338.163 7 200002286.262 7       -17.357          42.472    38408340.182 6 154654460.481 6       -13.462          39.675  
C22  22588639.462 6 117624985.006 6      1369.991          39.276                                                                  
C07  38191668.391 6 198874055.308 6      1387.913          41.128    38191671.078 7 153782035.182 7      1073.353          45.671  
C13  36628321.523 7 190733246.826 7     -1424.713          46.362    36628329.480 7 147487061.634 7     -1101.512          43.996  
C19  22793602.528 7 118692224.650 7      -909.366          47.222                                                                  
> 2020 11 19 06 00 19.0000000  0 18                     
G23  20280388.137 8 106574141.017 8      -389.879          48.464                                                                    20280387.849 8  83044776.906 8      -303.806          48.649  
G18  23044351.777 5 121098846.144 5     -3161.392          30.008                                                                                                                                  
G20  20036530.387 7 105292659.920 7      -831.253          47.677    20036529.618 7  82046212.575 7      -647.731          43.415                                                                  
G25  21633684.017 7 113685786.401 7      2267.920          46.877                                                                    21633689.739 7  88586327.279 7      1767.210          44.233  
G12  22113044.676 7 116204819.771 7       292.960          42.004                                                                    22113044.185 5  90549204.878 5       228.288          30.319  
G10  20819666.210 8 109408080.720 8      1760.527          49.535                                                                    20819666.539 7  85253053.030 7      1371.838          45.283  
G24  23305929.434 6 122473551.687 6     -3267.925          36.064                                                                                                                                  
R10  19417496.494 7 103505820.712 7      1654.997          45.443                                                                  
R09  20323490.522 7 108525919.250 7     -2301.856          46.859    20323491.042 7  84409049.873 7     -1790.331          45.656  
R07  20532684.881 7 109912640.404 7       988.304          47.713    20532685.038 7  85487628.038 7       768.683          43.967  
C01  37496785.149 7 195255579.052 7        -5.767          44.232    37496789.653 7 150984003.790 7        -4.348          44.229  
C08  37971357.197 6 197726782.227 6     -1738.959          36.947    37971358.445 6 152894881.348 6     -1344.440          36.220  
C03  36338458.068 7 189223867.976 7       -35.274          46.237    36338457.101 7 146319886.264 7       -27.224          45.147  
C04  38408341.484 7 200002303.583 7       -17.393          42.685    38408343.499 6 154654473.864 6       -13.383          39.929  
C22  22588376.391 6 117623615.218 6      1369.757          39.361                                                                  
C07  38191401.795 6 198872667.062 6      1388.241          41.253    38191404.476 7 153780961.691 7      1073.497          45.428  
C13  36628595.119 7 190734671.483 7     -1424.659          46.581    36628603.080 7 147488163.273 7     -1101.649          43.893  
C19  22793777.218 7 118693134.080 7      -909.451          47.319                                                                  
> 2020 11 19 06 00 20.0000000  0 18                     
G23  20280462.301 8 106574530.751 8      -389.367          48.479                                                                    20280462.015 8  83045080.593 8      -303.406          48.683  
G18  23044951.870 5 121102006.259 5     -3158.729          30.832                                                                                                                                  
G20  20036688.562 7 105293491.070 7      -830.920          47.716    20036687.803 7  82046860.221 7      -647.472          43.176                                                                  
G25  21633252.378 7 113683518.148 7      2268.522          47.001                                                                    21633258.088 7  88584559.808 7      1767.679          44.269  
G12  22112988.961 7 116204526.533 7       293.780          42.229                                                                    22112988.394 5  90548976.388 5       228.926          30.416  
G10  20819331.116 8 109406319.837 8      1761.243          49.606                                                                    20819331.449 7  85251680.909 7      1372.395          45.319  
G24  23306551.389 5 122476818.750 5     -3266.779          35.657                                                                                                                                  
R10  19417185.997 7 103504165.595 7      1655.188          45.235                                                                  
R09  20323921.544 7 108528220.877 7     -2301.358          46.745    20323922.091 7  84410840.032 7     -1789.943          45.637  
R07  20532500.217 7 109911651.812 7       989.079          47.768    20532500.398 7  85486859.136 7       769.286          43.868  
C01  37496786.145 7 195255584.214 7        -4.417          44.140    37496790.652 7 150984007.794 7        -3.570          44.158  
C08  37971691.064 6 197728520.556 6     -1738.283          36.734    37971692.281 5 152896225.527 5     -1343.560          35.520  
C03  36338464.744 7 189223902.711 7       -34.143          46.161    36338463.766 7 146319913.124 7       -26.362          45.124  
